{"type":"FeatureCollection", "features": [
{"type":"Feature","geometry":{"type":"Point","coordinates":[120.66086803900009,28.005326565000075]},"properties":{"OBJECTID":363,"FEATUREGUI":"284193f5228d49a89e787f3ddb2123fa","NAME":"马鞍池小学","TYPE":"学校","STYLENAME":"学校"}},
{"type":"Feature","geometry":{"type":"Point","coordinates":[120.65722387700009,28.006257530000084]},"properties":{"OBJECTID":378,"FEATUREGUI":"9ab0af3a658a45919e4f8157f4eb503e","NAME":"马鞍池大厦停车场","TYPE":"停车场","STYLENAME":"停车场"}},
{"type":"Feature","geometry":{"type":"Point","coordinates":[120.66162214100006,28.00765647500009]},"properties":{"OBJECTID":398,"FEATUREGUI":"f87561f3afcf4718a05097b89de821cd","NAME":"马鞍池托儿所","TYPE":"学校","STYLENAME":"学校"}},
{"type":"Feature","geometry":{"type":"Point","coordinates":[120.66078430100003,28.007943219000083]},"properties":{"OBJECTID":403,"FEATUREGUI":"55ab60616a8b49b8a2b618469229fe00","NAME":"马鞍池公园","TYPE":"公园广场","STYLENAME":"公园"}},
{"type":"Feature","geometry":{"type":"Point","coordinates":[120.66106273100001,28.00800105500008]},"properties":{"OBJECTID":407,"FEATUREGUI":"0da09d3b595b45979c6e20b726a67088","NAME":"马鞍池公园车库","TYPE":"停车场","STYLENAME":"停车场"}},
{"type":"Feature","geometry":{"type":"Point","coordinates":[120.65815267000005,28.00826104400005]},"properties":{"OBJECTID":409,"FEATUREGUI":"1f53d3cbf094441caf99b4bc23a182e9","NAME":"莲花公寓停车库","TYPE":"停车场","STYLENAME":"停车场"}},
{"type":"Feature","geometry":{"type":"Point","coordinates":[120.65994184600004,28.008261831000084]},"properties":{"OBJECTID":410,"FEATUREGUI":"f800124d84964fcf99eaf4c0dbcf6c0f","NAME":"万商淘品城","TYPE":"购物百货","STYLENAME":"百货商场购物中心"}},
{"type":"Feature","geometry":{"type":"Point","coordinates":[120.65885268300008,28.00846105000005]},"properties":{"OBJECTID":413,"FEATUREGUI":"15ccbfdc3c9045fba323732dd7f2dc90","NAME":"莲花大厦停车场","TYPE":"停车场","STYLENAME":"停车场"}},
{"type":"Feature","geometry":{"type":"Point","coordinates":[120.656179511,28.009617681000065]},"properties":{"OBJECTID":443,"FEATUREGUI":"81b5166abe7d48da8924d284aa6c5664","NAME":"荷花大厦停车场","TYPE":"停车场","STYLENAME":"停车场"}},
{"type":"Feature","geometry":{"type":"Point","coordinates":[120.65938572100003,28.00962885000007]},"properties":{"OBJECTID":444,"FEATUREGUI":"e40ac499d06a46ba9eb2a073500f92cd","NAME":"联合广场","TYPE":"公园广场","STYLENAME":"广场"}},
{"type":"Feature","geometry":{"type":"Point","coordinates":[120.65966869200008,28.00966808000004]},"properties":{"OBJECTID":446,"FEATUREGUI":"dd64333a7e1d4105b435f9029c3e83e2","NAME":"联合广场地下车库","TYPE":"停车场","STYLENAME":"停车场"}},
{"type":"Feature","geometry":{"type":"Point","coordinates":[120.66045375100009,28.010270051000077]},"properties":{"OBJECTID":465,"FEATUREGUI":"9f8a72014b14481f97881fa2d9835ae4","NAME":"银泰百货","TYPE":"购物百货","STYLENAME":"百货商场购物中心"}},
{"type":"Feature","geometry":{"type":"Point","coordinates":[120.66248335900002,28.010541943000078]},"properties":{"OBJECTID":476,"FEATUREGUI":"2893a10be73d4df6bd393b35f0aef118","NAME":"闻宅巷","TYPE":"购物百货","STYLENAME":"百货商场购物中心"}},
{"type":"Feature","geometry":{"type":"Point","coordinates":[120.65741262200004,28.01067256300007]},"properties":{"OBJECTID":481,"FEATUREGUI":"88cb29da9ea84935a21542a2d9481d81","NAME":"第三幼儿园","TYPE":"学校","STYLENAME":"学校"}},
{"type":"Feature","geometry":{"type":"Point","coordinates":[120.65997269400009,28.01083110400009]},"properties":{"OBJECTID":485,"FEATUREGUI":"7d8c4ee9eaa14ec28ba3400d02d5a32b","NAME":"国正大厦车库","TYPE":"停车场","STYLENAME":"停车场"}},
{"type":"Feature","geometry":{"type":"Point","coordinates":[120.65628107500004,28.010859760000073]},"properties":{"OBJECTID":487,"FEATUREGUI":"24fafe88df714b4fbce10f9dd28bf3e4","NAME":"虞师里小区停车场","TYPE":"停车场","STYLENAME":"停车场"}},
{"type":"Feature","geometry":{"type":"Point","coordinates":[120.66155272200001,28.01086111300009]},"properties":{"OBJECTID":488,"FEATUREGUI":"dbc7bf0442fc4434aaba5b963c99fca5","NAME":"华都大厦停车场","TYPE":"停车场","STYLENAME":"停车场"}},
{"type":"Feature","geometry":{"type":"Point","coordinates":[120.66285904400001,28.01092889800009]},"properties":{"OBJECTID":493,"FEATUREGUI":"b171a90ae786458eb472975a2263d306","NAME":"闻宅停车库","TYPE":"停车场","STYLENAME":"停车场"}},
{"type":"Feature","geometry":{"type":"Point","coordinates":[120.65697534200001,28.011122226000054]},"properties":{"OBJECTID":502,"FEATUREGUI":"59d1f05c1d18463bae6cf33238509586","NAME":"蝉河大厦停车库","TYPE":"停车场","STYLENAME":"停车场"}},
{"type":"Feature","geometry":{"type":"Point","coordinates":[120.65772264300005,28.011471591000088]},"properties":{"OBJECTID":525,"FEATUREGUI":"5dcb6655cb6f455d90ada7826b17b5d1","NAME":"虞师里大厦停车库","TYPE":"停车场","STYLENAME":"停车场"}},
{"type":"Feature","geometry":{"type":"Point","coordinates":[120.65736263600001,28.01155110400009]},"properties":{"OBJECTID":527,"FEATUREGUI":"d4fb27967dc04972a7214ea655cc0bba","NAME":"停车场","TYPE":"停车场","STYLENAME":"停车场"}},
{"type":"Feature","geometry":{"type":"Point","coordinates":[120.66101470600006,28.011873130000083]},"properties":{"OBJECTID":536,"FEATUREGUI":"df6c458f15ad4908a880a445b7f82d7d","NAME":"龙泉公寓地下停车库","TYPE":"停车场","STYLENAME":"停车场"}},
{"type":"Feature","geometry":{"type":"Point","coordinates":[120.65923267300002,28.011921121000057]},"properties":{"OBJECTID":540,"FEATUREGUI":"b407bdb2491d4088888787b1823619b1","NAME":"万里桥大厦停车库","TYPE":"停车场","STYLENAME":"停车场"}},
{"type":"Feature","geometry":{"type":"Point","coordinates":[120.663372751,28.01218114900007]},"properties":{"OBJECTID":549,"FEATUREGUI":"7a0ae678a02e421bb6508fe6958be93a","NAME":"瑞霞公寓停车场","TYPE":"停车场","STYLENAME":"停车场"}},
{"type":"Feature","geometry":{"type":"Point","coordinates":[120.65728663300001,28.01222211600009]},"properties":{"OBJECTID":551,"FEATUREGUI":"21211d627f034ce8a61391f4dc79e0ee","NAME":"美曦大厦停车场","TYPE":"停车场","STYLENAME":"停车场"}},
{"type":"Feature","geometry":{"type":"Point","coordinates":[120.6631777450001,28.012563155000066]},"properties":{"OBJECTID":565,"FEATUREGUI":"3d7ae824c30440a780afc9f27db83970","NAME":"第一幼儿园","TYPE":"学校","STYLENAME":"学校"}},
{"type":"Feature","geometry":{"type":"Point","coordinates":[120.661325734,28.01318321100007]},"properties":{"OBJECTID":583,"FEATUREGUI":"2bc2e29fa45d4c1798b48079c529c45c","NAME":"诚达停车库","TYPE":"停车场","STYLENAME":"停车场"}},
{"type":"Feature","geometry":{"type":"Point","coordinates":[120.66186871600007,28.01318516100008]},"properties":{"OBJECTID":584,"FEATUREGUI":"c19d5b0a738443f7967bb1d12192ff5d","NAME":"城南小学","TYPE":"学校","STYLENAME":"学校"}}
]}